{
"type": "FeatureCollection",
"name": "REDCL_69_toilets",
"crs": { "type": "name", "properties": { "name": "urn:ogc:def:crs:OGC:1.3:CRS84" } },
"features": [
{ "type": "Feature", "properties": { "name": "Tesco", "payment_info": "Cost unknown", "accessible": "True", "radar": "False", "women": "True", "men": "True", "baby_change": "True", "Mon": "09:00-17:00", "Tue": "09:00-17:00", "Wed": "09:00-17:00", "Thu": "09:00-17:00", "Fri": "09:00-17:00", "Sat": "09:00-17:00", "Sun": "09:00-17:00", "index_right": 51, "park_offical_id": "REDCL_69" }, "geometry": { "type": "Point", "coordinates": [ -1.066617966, 54.613419575 ] } },
{ "type": "Feature", "properties": { "name": "Moore Street", "payment_info": "30p  cashless methods only", "accessible": "False", "radar": "True", "women": "True", "men": "True", "baby_change": "True", "Mon": "09:00-16:00", "Tue": "09:00-16:00", "Wed": "09:00-16:00", "Thu": "09:00-16:00", "Fri": "09:00-16:00", "Sat": "09:00-16:00", "Sun": "09:00-16:00", "index_right": 51, "park_offical_id": "REDCL_69" }, "geometry": { "type": "Point", "coordinates": [ -1.063785553, 54.618429504 ] } },
{ "type": "Feature", "properties": { "name": "Redcar Library", "payment_info": "Free", "accessible": "True", "radar": "False", "women": "True", "men": "True", "baby_change": "True", "Mon": "Unknown", "Tue": "Unknown", "Wed": "Unknown", "Thu": "Unknown", "Fri": "Unknown", "Sat": "Unknown", "Sun": "Unknown", "index_right": 51, "park_offical_id": "REDCL_69" }, "geometry": { "type": "Point", "coordinates": [ -1.071928008, 54.616585364 ] } },
{ "type": "Feature", "properties": { "name": "Morrisons", "payment_info": "Cost unknown", "accessible": "True", "radar": "False", "women": "True", "men": "True", "baby_change": "True", "Mon": "09:00-18:00", "Tue": "09:00-18:00", "Wed": "09:00-18:00", "Thu": "09:00-18:00", "Fri": "09:00-18:00", "Sat": "09:00-18:00", "Sun": "09:00-18:00", "index_right": 51, "park_offical_id": "REDCL_69" }, "geometry": { "type": "Point", "coordinates": [ -1.065895557, 54.616612913 ] } },
{ "type": "Feature", "properties": { "name": "Civic Centre Redcar", "payment_info": "Free", "accessible": "True", "radar": "False", "women": "True", "men": "True", "baby_change": "False", "Mon": "09:00-17:00", "Tue": "09:00-17:00", "Wed": "09:00-17:00", "Thu": "09:00-17:00", "Fri": "09:00-17:00", "Sat": "09:00-17:00", "Sun": "09:00-17:00", "index_right": 51, "park_offical_id": "REDCL_69" }, "geometry": { "type": "Point", "coordinates": [ -1.071016495, 54.617171524 ] } },
{ "type": "Feature", "properties": { "name": "Redcar Beacon", "payment_info": "Free", "accessible": "True", "radar": "True", "women": "True", "men": "True", "baby_change": "True", "Mon": "10:00-16:00", "Tue": "10:00-16:00", "Wed": "10:00-16:00", "Thu": "10:00-16:00", "Fri": "10:00-16:00", "Sat": "10:00-16:00", "Sun": "10:00-16:00", "index_right": 51, "park_offical_id": "REDCL_69" }, "geometry": { "type": "Point", "coordinates": [ -1.068179338, 54.620025601 ] } }
]
}
