{
"type": "FeatureCollection",
"name": "GATES_46_toilets",
"crs": { "type": "name", "properties": { "name": "urn:ogc:def:crs:OGC:1.3:CRS84" } },
"features": [
{ "type": "Feature", "properties": { "name": "Central Library", "payment_info": "Free", "accessible": "False", "radar": "Unknown", "women": "True", "men": "True", "baby_change": "True", "Mon": "Unknown", "Tue": "Unknown", "Wed": "Unknown", "Thu": "Unknown", "Fri": "Unknown", "Sat": "Unknown", "Sun": "Unknown", "index_right": 77, "park_offical_id": "GATES_46" }, "geometry": { "type": "Point", "coordinates": [ -1.601687138, 54.951431811 ] } },
{ "type": "Feature", "properties": { "name": "Shipley Art Gallery", "payment_info": "Free", "accessible": "False", "radar": "Unknown", "women": "True", "men": "True", "baby_change": "False", "Mon": "Unknown", "Tue": "Unknown", "Wed": "Unknown", "Thu": "Unknown", "Fri": "Unknown", "Sat": "Unknown", "Sun": "Unknown", "index_right": 77, "park_offical_id": "GATES_46" }, "geometry": { "type": "Point", "coordinates": [ -1.600492895, 54.949989536 ] } },
{ "type": "Feature", "properties": { "name": "Lowreys Lane", "payment_info": "There is a charge for this service", "accessible": "False", "radar": "Unknown", "women": "True", "men": "True", "baby_change": "True", "Mon": "00:00-00:00", "Tue": "00:00-00:00", "Wed": "00:00-00:00", "Thu": "00:00-00:00", "Fri": "00:00-00:00", "Sat": "00:00-00:00", "Sun": "00:00-00:00", "index_right": 77, "park_offical_id": "GATES_46" }, "geometry": { "type": "Point", "coordinates": [ -1.598992835, 54.935049895 ] } },
{ "type": "Feature", "properties": { "name": "Saltwell Park", "payment_info": "Cost unknown", "accessible": "False", "radar": "Unknown", "women": "True", "men": "True", "baby_change": "True", "Mon": "Unknown", "Tue": "Unknown", "Wed": "Unknown", "Thu": "Unknown", "Fri": "Unknown", "Sat": "Unknown", "Sun": "Unknown", "index_right": 77, "park_offical_id": "GATES_46" }, "geometry": { "type": "Point", "coordinates": [ -1.607106314, 54.943289875 ] } },
{ "type": "Feature", "properties": { "name": "Gateshead Leisure Centre", "payment_info": "Free", "accessible": "False", "radar": "Unknown", "women": "True", "men": "True", "baby_change": "True", "Mon": "Unknown", "Tue": "Unknown", "Wed": "Unknown", "Thu": "Unknown", "Fri": "Unknown", "Sat": "Unknown", "Sun": "Unknown", "index_right": 77, "park_offical_id": "GATES_46" }, "geometry": { "type": "Point", "coordinates": [ -1.60011611, 54.95083356 ] } },
{ "type": "Feature", "properties": { "name": "Lowreys Lane", "payment_info": "Free", "accessible": "False", "radar": "Unknown", "women": "Unknown", "men": "Unknown", "baby_change": "Unknown", "Mon": "Unknown", "Tue": "Unknown", "Wed": "Unknown", "Thu": "Unknown", "Fri": "Unknown", "Sat": "Unknown", "Sun": "Unknown", "index_right": 77, "park_offical_id": "GATES_46" }, "geometry": { "type": "Point", "coordinates": [ -1.5989343, 54.9357368 ] } },
{ "type": "Feature", "properties": { "name": "Unknown", "payment_info": "Free", "accessible": "False", "radar": "Unknown", "women": "Unknown", "men": "Unknown", "baby_change": "Unknown", "Mon": "Unknown", "Tue": "Unknown", "Wed": "Unknown", "Thu": "Unknown", "Fri": "Unknown", "Sat": "Unknown", "Sun": "Unknown", "index_right": 77, "park_offical_id": "GATES_46" }, "geometry": { "type": "Point", "coordinates": [ -1.6038966, 54.9440904 ] } }
]
}
