{
"type": "FeatureCollection",
"name": "NEWUP_152_toilets",
"crs": { "type": "name", "properties": { "name": "urn:ogc:def:crs:OGC:1.3:CRS84" } },
"features": [
{ "type": "Feature", "properties": { "name": "Discovery Museum", "payment_info": "Free", "accessible": "False", "radar": "Unknown", "women": "Unknown", "men": "Unknown", "baby_change": "Unknown", "Mon": "Unknown", "Tue": "Unknown", "Wed": "Unknown", "Thu": "Unknown", "Fri": "Unknown", "Sat": "Unknown", "Sun": "Unknown", "index_right": 45, "park_offical_id": "NEWUP_152" }, "geometry": { "type": "Point", "coordinates": [ -1.624831569, 54.969091145 ] } },
{ "type": "Feature", "properties": { "name": "Grainger Town multistorey", "payment_info": "Cost unknown", "accessible": "True", "radar": "False", "women": "Unknown", "men": "Unknown", "baby_change": "Unknown", "Mon": "00:00-00:00", "Tue": "00:00-00:00", "Wed": "00:00-00:00", "Thu": "00:00-00:00", "Fri": "00:00-00:00", "Sat": "00:00-00:00", "Sun": "00:00-00:00", "index_right": 45, "park_offical_id": "NEWUP_152" }, "geometry": { "type": "Point", "coordinates": [ -1.6218458, 54.9691852 ] } },
{ "type": "Feature", "properties": { "name": "Newcastle Station Poli", "payment_info": "Cost unknown", "accessible": "False", "radar": "Unknown", "women": "Unknown", "men": "Unknown", "baby_change": "Unknown", "Mon": "Unknown", "Tue": "Unknown", "Wed": "Unknown", "Thu": "Unknown", "Fri": "Unknown", "Sat": "Unknown", "Sun": "Unknown", "index_right": 45, "park_offical_id": "NEWUP_152" }, "geometry": { "type": "Point", "coordinates": [ -1.618874845, 54.968051763 ] } },
{ "type": "Feature", "properties": { "name": "Newcastle Station P12", "payment_info": "Cost unknown", "accessible": "True", "radar": "True", "women": "True", "men": "True", "baby_change": "True", "Mon": "Unknown", "Tue": "Unknown", "Wed": "Unknown", "Thu": "Unknown", "Fri": "Unknown", "Sat": "Unknown", "Sun": "Unknown", "index_right": 45, "park_offical_id": "NEWUP_152" }, "geometry": { "type": "Point", "coordinates": [ -1.619036116, 54.967749206 ] } },
{ "type": "Feature", "properties": { "name": "Newcastle", "payment_info": "Free", "accessible": "True", "radar": "True", "women": "True", "men": "True", "baby_change": "True", "Mon": "00:00-00:00", "Tue": "00:00-00:00", "Wed": "00:00-00:00", "Thu": "00:00-00:00", "Fri": "00:00-00:00", "Sat": "00:00-00:00", "Sun": "00:00-00:00", "index_right": 45, "park_offical_id": "NEWUP_152" }, "geometry": { "type": "Point", "coordinates": [ -1.617285496, 54.968220556 ] } },
{ "type": "Feature", "properties": { "name": "Eldon Square Blackett Street Grainger Town United Kingdom l", "payment_info": "Free", "accessible": "True", "radar": "True", "women": "True", "men": "True", "baby_change": "True", "Mon": "Unknown", "Tue": "Unknown", "Wed": "Unknown", "Thu": "Unknown", "Fri": "Unknown", "Sat": "Unknown", "Sun": "Unknown", "index_right": 45, "park_offical_id": "NEWUP_152" }, "geometry": { "type": "Point", "coordinates": [ -1.616637111, 54.967509907 ] } }
]
}
