{
"type": "FeatureCollection",
"name": "MIDDL_6_toilets",
"crs": { "type": "name", "properties": { "name": "urn:ogc:def:crs:OGC:1.3:CRS84" } },
"features": [
{ "type": "Feature", "properties": { "name": "Central library", "payment_info": "Free", "accessible": "True", "radar": "True", "women": "True", "men": "True", "baby_change": "True", "Mon": "Unknown", "Tue": "Unknown", "Wed": "Unknown", "Thu": "Unknown", "Fri": "Unknown", "Sat": "Unknown", "Sun": "Unknown", "index_right": 39, "park_offical_id": "MIDDL_6" }, "geometry": { "type": "Point", "coordinates": [ -1.233687401, 54.574412291 ] } },
{ "type": "Feature", "properties": { "name": "Middlesbrough Town Hall Toilets", "payment_info": "Free", "accessible": "True", "radar": "True", "women": "True", "men": "True", "baby_change": "True", "Mon": "Unknown", "Tue": "Unknown", "Wed": "Unknown", "Thu": "Unknown", "Fri": "Unknown", "Sat": "Unknown", "Sun": "Unknown", "index_right": 39, "park_offical_id": "MIDDL_6" }, "geometry": { "type": "Point", "coordinates": [ -1.234502792, 54.57559521 ] } },
{ "type": "Feature", "properties": { "name": "Mima Public Toilets", "payment_info": "Free", "accessible": "True", "radar": "True", "women": "True", "men": "True", "baby_change": "False", "Mon": "Unknown", "Tue": "Unknown", "Wed": "Unknown", "Thu": "Unknown", "Fri": "Unknown", "Sat": "Unknown", "Sun": "Unknown", "index_right": 39, "park_offical_id": "MIDDL_6" }, "geometry": { "type": "Point", "coordinates": [ -1.23259306, 54.57444965 ] } },
{ "type": "Feature", "properties": { "name": "McDonalds leisure Park", "payment_info": "Free", "accessible": "True", "radar": "False", "women": "True", "men": "True", "baby_change": "True", "Mon": "Unknown", "Tue": "Unknown", "Wed": "Unknown", "Thu": "Unknown", "Fri": "Unknown", "Sat": "Unknown", "Sun": "Unknown", "index_right": 39, "park_offical_id": "MIDDL_6" }, "geometry": { "type": "Point", "coordinates": [ -1.22687459, 54.575693422 ] } },
{ "type": "Feature", "properties": { "name": "McDonalds Toilets", "payment_info": "Free", "accessible": "True", "radar": "True", "women": "True", "men": "True", "baby_change": "True", "Mon": "Unknown", "Tue": "Unknown", "Wed": "Unknown", "Thu": "Unknown", "Fri": "Unknown", "Sat": "Unknown", "Sun": "Unknown", "index_right": 39, "park_offical_id": "MIDDL_6" }, "geometry": { "type": "Point", "coordinates": [ -1.23747468, 54.574555692 ] } },
{ "type": "Feature", "properties": { "name": "Dundas Arcade Shopping Centre Toilets", "payment_info": "Free", "accessible": "True", "radar": "True", "women": "True", "men": "True", "baby_change": "True", "Mon": "Unknown", "Tue": "Unknown", "Wed": "Unknown", "Thu": "Unknown", "Fri": "Unknown", "Sat": "Unknown", "Sun": "Unknown", "index_right": 39, "park_offical_id": "MIDDL_6" }, "geometry": { "type": "Point", "coordinates": [ -1.235135794, 54.577820588 ] } }
]
}
