{
"type": "FeatureCollection",
"name": "MIDDL_38_toilets",
"crs": { "type": "name", "properties": { "name": "urn:ogc:def:crs:OGC:1.3:CRS84" } },
"features": [
{ "type": "Feature", "properties": { "name": "Hillstreet Shopping Centre Toilets", "payment_info": "Free", "accessible": "True", "radar": "True", "women": "True", "men": "True", "baby_change": "True", "Mon": "Unknown", "Tue": "Unknown", "Wed": "Unknown", "Thu": "Unknown", "Fri": "Unknown", "Sat": "Unknown", "Sun": "Unknown", "index_right": 32, "park_offical_id": "MIDDL_38" }, "geometry": { "type": "Point", "coordinates": [ -1.238386631, 54.577611006 ] } },
{ "type": "Feature", "properties": { "name": "Central library", "payment_info": "Free", "accessible": "True", "radar": "True", "women": "True", "men": "True", "baby_change": "True", "Mon": "Unknown", "Tue": "Unknown", "Wed": "Unknown", "Thu": "Unknown", "Fri": "Unknown", "Sat": "Unknown", "Sun": "Unknown", "index_right": 32, "park_offical_id": "MIDDL_38" }, "geometry": { "type": "Point", "coordinates": [ -1.233687401, 54.574412291 ] } },
{ "type": "Feature", "properties": { "name": "Middlesbrough Station", "payment_info": "Free", "accessible": "False", "radar": "False", "women": "Unknown", "men": "Unknown", "baby_change": "True", "Mon": "Unknown", "Tue": "Unknown", "Wed": "Unknown", "Thu": "Unknown", "Fri": "Unknown", "Sat": "Unknown", "Sun": "Unknown", "index_right": 32, "park_offical_id": "MIDDL_38" }, "geometry": { "type": "Point", "coordinates": [ -1.234712568, 54.579110454 ] } },
{ "type": "Feature", "properties": { "name": "Middlesbrough Bus Station Toilets", "payment_info": "20p", "accessible": "True", "radar": "True", "women": "True", "men": "True", "baby_change": "True", "Mon": "05:00-17:00", "Tue": "05:00-17:00", "Wed": "05:00-17:00", "Thu": "05:00-17:00", "Fri": "05:00-17:00", "Sat": "05:00-17:00", "Sun": "05:00-17:00", "index_right": 32, "park_offical_id": "MIDDL_38" }, "geometry": { "type": "Point", "coordinates": [ -1.239126921, 54.575931417 ] } },
{ "type": "Feature", "properties": { "name": "Middlesbrough Town Hall Toilets", "payment_info": "Free", "accessible": "True", "radar": "True", "women": "True", "men": "True", "baby_change": "True", "Mon": "Unknown", "Tue": "Unknown", "Wed": "Unknown", "Thu": "Unknown", "Fri": "Unknown", "Sat": "Unknown", "Sun": "Unknown", "index_right": 32, "park_offical_id": "MIDDL_38" }, "geometry": { "type": "Point", "coordinates": [ -1.234502792, 54.57559521 ] } },
{ "type": "Feature", "properties": { "name": "Mima Public Toilets", "payment_info": "Free", "accessible": "True", "radar": "True", "women": "True", "men": "True", "baby_change": "False", "Mon": "Unknown", "Tue": "Unknown", "Wed": "Unknown", "Thu": "Unknown", "Fri": "Unknown", "Sat": "Unknown", "Sun": "Unknown", "index_right": 32, "park_offical_id": "MIDDL_38" }, "geometry": { "type": "Point", "coordinates": [ -1.23259306, 54.57444965 ] } },
{ "type": "Feature", "properties": { "name": "McDonalds leisure Park", "payment_info": "Free", "accessible": "True", "radar": "False", "women": "True", "men": "True", "baby_change": "True", "Mon": "Unknown", "Tue": "Unknown", "Wed": "Unknown", "Thu": "Unknown", "Fri": "Unknown", "Sat": "Unknown", "Sun": "Unknown", "index_right": 32, "park_offical_id": "MIDDL_38" }, "geometry": { "type": "Point", "coordinates": [ -1.22687459, 54.575693422 ] } },
{ "type": "Feature", "properties": { "name": "Sainsburys Public Toilets", "payment_info": "Free", "accessible": "True", "radar": "True", "women": "True", "men": "True", "baby_change": "True", "Mon": "Unknown", "Tue": "Unknown", "Wed": "Unknown", "Thu": "Unknown", "Fri": "Unknown", "Sat": "Unknown", "Sun": "Unknown", "index_right": 32, "park_offical_id": "MIDDL_38" }, "geometry": { "type": "Point", "coordinates": [ -1.242721081, 54.577024885 ] } },
{ "type": "Feature", "properties": { "name": "Middlesbrough Bus Station changing places", "payment_info": "Free", "accessible": "False", "radar": "False", "women": "True", "men": "True", "baby_change": "True", "Mon": "Unknown", "Tue": "Unknown", "Wed": "Unknown", "Thu": "Unknown", "Fri": "Unknown", "Sat": "Unknown", "Sun": "Unknown", "index_right": 32, "park_offical_id": "MIDDL_38" }, "geometry": { "type": "Point", "coordinates": [ -1.239480972, 54.575793112 ] } },
{ "type": "Feature", "properties": { "name": "McDonalds Toilets", "payment_info": "Free", "accessible": "True", "radar": "True", "women": "True", "men": "True", "baby_change": "True", "Mon": "Unknown", "Tue": "Unknown", "Wed": "Unknown", "Thu": "Unknown", "Fri": "Unknown", "Sat": "Unknown", "Sun": "Unknown", "index_right": 32, "park_offical_id": "MIDDL_38" }, "geometry": { "type": "Point", "coordinates": [ -1.23747468, 54.574555692 ] } },
{ "type": "Feature", "properties": { "name": "Dundas Arcade Shopping Centre Toilets", "payment_info": "Free", "accessible": "True", "radar": "True", "women": "True", "men": "True", "baby_change": "True", "Mon": "Unknown", "Tue": "Unknown", "Wed": "Unknown", "Thu": "Unknown", "Fri": "Unknown", "Sat": "Unknown", "Sun": "Unknown", "index_right": 32, "park_offical_id": "MIDDL_38" }, "geometry": { "type": "Point", "coordinates": [ -1.235135794, 54.577820588 ] } }
]
}
